{
  "category": "chelsea",
  "query": "restaurant chelsea london",
  "count": 14,
  "results": [
    {
      "place_id": "ChIJuW4AjG8FdkgRDb_vqbTS508",
      "name": "Bluebird Chelsea",
      "category": "chelsea",
      "priority": "high",
      "rating": 4.3,
      "user_ratings_total": 4674,
      "formatted_address": "350 King's Rd, London SW3 5UU, United Kingdom",
      "types": [
        "cafe",
        "night_club",
        "bar",
        "restaurant",
        "point_of_interest",
        "food",
        "establishment"
      ],
      "geometry": {
        "location": {
          "lat": 51.48475029999999,
          "lng": -0.1755033
        },
        "viewport": {
          "northeast": {
            "lat": 51.48613932989272,
            "lng": -0.1738971201072778
          },
          "southwest": {
            "lat": 51.48343967010727,
            "lng": -0.1765967798927222
          }
        }
      },
      "fetched_at": "2025-10-16T20:23:37.292Z",
      "query_used": "restaurant chelsea london"
    },
    {
      "place_id": "ChIJXcPZYWsFdkgRsWEe71cturU",
      "name": "Rabbit British Bistro",
      "category": "chelsea",
      "priority": "high",
      "rating": 4.6,
      "user_ratings_total": 2465,
      "formatted_address": "172 King's Rd, London SW3 4UP, United Kingdom",
      "types": [
        "restaurant",
        "point_of_interest",
        "food",
        "establishment"
      ],
      "geometry": {
        "location": {
          "lat": 51.4887032,
          "lng": -0.1660769
        },
        "viewport": {
          "northeast": {
            "lat": 51.49000317989272,
            "lng": -0.1646770701072778
          },
          "southwest": {
            "lat": 51.48730352010728,
            "lng": -0.1673767298927222
          }
        }
      },
      "fetched_at": "2025-10-16T20:23:37.292Z",
      "query_used": "restaurant chelsea london"
    },
    {
      "place_id": "ChIJJ-MhPWwFdkgRKVwtA039nU0",
      "name": "The Ivy Chelsea Garden",
      "category": "chelsea",
      "priority": "high",
      "rating": 4.3,
      "user_ratings_total": 6311,
      "formatted_address": "197 King's Rd, London SW3 5EQ, United Kingdom",
      "types": [
        "restaurant",
        "point_of_interest",
        "food",
        "establishment"
      ],
      "geometry": {
        "location": {
          "lat": 51.4869913,
          "lng": -0.1693306
        },
        "viewport": {
          "northeast": {
            "lat": 51.48842977989273,
            "lng": -0.1680495201072778
          },
          "southwest": {
            "lat": 51.48573012010728,
            "lng": -0.1707491798927222
          }
        }
      },
      "fetched_at": "2025-10-16T20:23:37.292Z",
      "query_used": "restaurant chelsea london"
    },
    {
      "place_id": "ChIJwx_Hci0FdkgRgxwdoexS6ec",
      "name": "La Mia Mamma King's Road",
      "category": "chelsea",
      "priority": "high",
      "rating": 4.5,
      "user_ratings_total": 1683,
      "formatted_address": "257 King's Rd, London SW3 5EL, United Kingdom",
      "types": [
        "restaurant",
        "point_of_interest",
        "food",
        "establishment"
      ],
      "geometry": {
        "location": {
          "lat": 51.48606410000001,
          "lng": -0.1721451
        },
        "viewport": {
          "northeast": {
            "lat": 51.48743037989271,
            "lng": -0.1708163701072778
          },
          "southwest": {
            "lat": 51.48473072010727,
            "lng": -0.1735160298927222
          }
        }
      },
      "fetched_at": "2025-10-16T20:23:37.292Z",
      "query_used": "restaurant chelsea london"
    },
    {
      "place_id": "ChIJk8O_eJkFdkgRxU8DHQTBC8Q",
      "name": "The Chelsea Corner",
      "category": "chelsea",
      "priority": "high",
      "rating": 4.7,
      "user_ratings_total": 827,
      "formatted_address": "451 Fulham Rd., London SW10 9UZ, United Kingdom",
      "types": [
        "bar",
        "restaurant",
        "point_of_interest",
        "food",
        "establishment"
      ],
      "geometry": {
        "location": {
          "lat": 51.4831559,
          "lng": -0.1854555
        },
        "viewport": {
          "northeast": {
            "lat": 51.48454917989272,
            "lng": -0.1841103201072778
          },
          "southwest": {
            "lat": 51.48184952010727,
            "lng": -0.1868099798927222
          }
        }
      },
      "fetched_at": "2025-10-16T20:23:37.292Z",
      "query_used": "restaurant chelsea london"
    },
    {
      "place_id": "ChIJ51SweWoFdkgRIzOGa8Fhc9I",
      "name": "Daphne's",
      "category": "chelsea",
      "priority": "high",
      "rating": 4.3,
      "user_ratings_total": 1450,
      "formatted_address": "112 Draycott Ave, London SW3 3AE, United Kingdom",
      "types": [
        "bar",
        "restaurant",
        "point_of_interest",
        "food",
        "establishment"
      ],
      "geometry": {
        "location": {
          "lat": 51.4936865,
          "lng": -0.1677929
        },
        "viewport": {
          "northeast": {
            "lat": 51.49498527989272,
            "lng": -0.1665007201072778
          },
          "southwest": {
            "lat": 51.49228562010728,
            "lng": -0.1692003798927222
          }
        }
      },
      "fetched_at": "2025-10-16T20:23:37.292Z",
      "query_used": "restaurant chelsea london"
    },
    {
      "place_id": "ChIJ7dsWCHIFdkgR0l78z0NcBrs",
      "name": "No. Fifty Cheyne",
      "category": "chelsea",
      "priority": "high",
      "rating": 4.6,
      "user_ratings_total": 691,
      "formatted_address": "50 Cheyne Walk, London SW3 5LR, United Kingdom",
      "types": [
        "restaurant",
        "bar",
        "point_of_interest",
        "food",
        "establishment"
      ],
      "geometry": {
        "location": {
          "lat": 51.4833537,
          "lng": -0.1694099
        },
        "viewport": {
          "northeast": {
            "lat": 51.48466137989272,
            "lng": -0.1680703701072778
          },
          "southwest": {
            "lat": 51.48196172010728,
            "lng": -0.1707700298927222
          }
        }
      },
      "fetched_at": "2025-10-16T20:23:37.292Z",
      "query_used": "restaurant chelsea london"
    },
    {
      "place_id": "ChIJnaPBAT4FdkgRaNTHwWGWYYA",
      "name": "Granger & Co. Chelsea",
      "category": "chelsea",
      "priority": "high",
      "rating": 4.2,
      "user_ratings_total": 2314,
      "formatted_address": "237-239 Pavilion Rd, London SW1X 0BP, United Kingdom",
      "types": [
        "restaurant",
        "point_of_interest",
        "food",
        "establishment"
      ],
      "geometry": {
        "location": {
          "lat": 51.4937491,
          "lng": -0.1587577
        },
        "viewport": {
          "northeast": {
            "lat": 51.49511487989272,
            "lng": -0.1574100701072778
          },
          "southwest": {
            "lat": 51.49241522010728,
            "lng": -0.1601097298927222
          }
        }
      },
      "fetched_at": "2025-10-16T20:23:37.292Z",
      "query_used": "restaurant chelsea london"
    },
    {
      "place_id": "ChIJySy3o2MFdkgRrkVexMIkbzk",
      "name": "The Ivy Asia Chelsea",
      "category": "chelsea",
      "priority": "high",
      "rating": 4.4,
      "user_ratings_total": 1925,
      "formatted_address": "201, 203A King's Rd, London SW3 5ED, United Kingdom",
      "types": [
        "restaurant",
        "point_of_interest",
        "food",
        "establishment"
      ],
      "geometry": {
        "location": {
          "lat": 51.4869652,
          "lng": -0.1696046
        },
        "viewport": {
          "northeast": {
            "lat": 51.48838212989272,
            "lng": -0.1682761201072778
          },
          "southwest": {
            "lat": 51.48568247010728,
            "lng": -0.1709757798927222
          }
        }
      },
      "fetched_at": "2025-10-16T20:23:37.292Z",
      "query_used": "restaurant chelsea london"
    },
    {
      "place_id": "ChIJK7aYUOsFdkgRKgJYM07RLuw",
      "name": "Stanley's Chelsea",
      "category": "chelsea",
      "priority": "high",
      "rating": 4.3,
      "user_ratings_total": 274,
      "formatted_address": "151 Sydney St, London SW3 5UE, United Kingdom",
      "types": [
        "restaurant",
        "bar",
        "point_of_interest",
        "food",
        "establishment"
      ],
      "geometry": {
        "location": {
          "lat": 51.48757519999999,
          "lng": -0.1692573
        },
        "viewport": {
          "northeast": {
            "lat": 51.48900327989271,
            "lng": -0.1677277201072778
          },
          "southwest": {
            "lat": 51.48630362010727,
            "lng": -0.1704273798927222
          }
        }
      },
      "fetched_at": "2025-10-16T20:23:37.292Z",
      "query_used": "restaurant chelsea london"
    },
    {
      "place_id": "ChIJz6D4H70FdkgRwmpVyOnTXqU",
      "name": "Mucci's",
      "category": "chelsea",
      "priority": "high",
      "rating": 4.7,
      "user_ratings_total": 2212,
      "formatted_address": "442 King's Rd, London SW10 0LQ, United Kingdom",
      "types": [
        "restaurant",
        "point_of_interest",
        "food",
        "establishment"
      ],
      "geometry": {
        "location": {
          "lat": 51.4829896,
          "lng": -0.1781273
        },
        "viewport": {
          "northeast": {
            "lat": 51.48427412989273,
            "lng": -0.1766994201072778
          },
          "southwest": {
            "lat": 51.48157447010728,
            "lng": -0.1793990798927222
          }
        }
      },
      "fetched_at": "2025-10-16T20:23:37.292Z",
      "query_used": "restaurant chelsea london"
    },
    {
      "place_id": "ChIJ66HKJ8QFdkgRoWrsa8akEZc",
      "name": "The Cadogan Arms",
      "category": "chelsea",
      "priority": "high",
      "rating": 4.6,
      "user_ratings_total": 1704,
      "formatted_address": "298 King's Rd, London SW3 5UG, United Kingdom",
      "types": [
        "bar",
        "restaurant",
        "point_of_interest",
        "food",
        "establishment"
      ],
      "geometry": {
        "location": {
          "lat": 51.4859959,
          "lng": -0.1729423
        },
        "viewport": {
          "northeast": {
            "lat": 51.48730132989272,
            "lng": -0.1715075701072778
          },
          "southwest": {
            "lat": 51.48460167010727,
            "lng": -0.1742072298927222
          }
        }
      },
      "fetched_at": "2025-10-16T20:23:37.292Z",
      "query_used": "restaurant chelsea london"
    },
    {
      "place_id": "ChIJHbgcPVQFdkgRD_VwKVHz5WU",
      "name": "Baba Restaurant Chelsea",
      "category": "chelsea",
      "priority": "high",
      "rating": 4.8,
      "user_ratings_total": 265,
      "formatted_address": "212 Fulham Rd., London SW10 9PJ, United Kingdom",
      "types": [
        "restaurant",
        "point_of_interest",
        "food",
        "establishment"
      ],
      "geometry": {
        "location": {
          "lat": 51.4856878,
          "lng": -0.1816679
        },
        "viewport": {
          "northeast": {
            "lat": 51.48699602989272,
            "lng": -0.1802472701072778
          },
          "southwest": {
            "lat": 51.48429637010728,
            "lng": -0.1829469298927222
          }
        }
      },
      "fetched_at": "2025-10-16T20:23:37.292Z",
      "query_used": "restaurant chelsea london"
    },
    {
      "place_id": "ChIJmSI9UdcFdkgRSbOLWv-dTSo",
      "name": "Bottarga",
      "category": "chelsea",
      "priority": "high",
      "rating": 4.5,
      "user_ratings_total": 403,
      "formatted_address": "383 King's Rd, London SW10 0LP, United Kingdom",
      "types": [
        "restaurant",
        "point_of_interest",
        "food",
        "establishment"
      ],
      "geometry": {
        "location": {
          "lat": 51.4833969,
          "lng": -0.1765442
        },
        "viewport": {
          "northeast": {
            "lat": 51.48474762989272,
            "lng": -0.1752540201072778
          },
          "southwest": {
            "lat": 51.48204797010728,
            "lng": -0.1779536798927222
          }
        }
      },
      "fetched_at": "2025-10-16T20:23:37.292Z",
      "query_used": "restaurant chelsea london"
    }
  ],
  "fetched_at": "2025-10-16T20:23:37.292Z"
}