{
  "category": "chelsea",
  "query": "restaurant chelsea london",
  "count": 13,
  "results": [
    {
      "place_id": "ChIJXcPZYWsFdkgRsWEe71cturU",
      "name": "Rabbit British Bistro",
      "category": "chelsea",
      "priority": "high",
      "rating": 4.6,
      "user_ratings_total": 2462,
      "formatted_address": "172 King's Rd, London SW3 4UP, United Kingdom",
      "types": [
        "restaurant",
        "food",
        "point_of_interest",
        "establishment"
      ],
      "geometry": {
        "location": {
          "lat": 51.4887032,
          "lng": -0.1660769
        },
        "viewport": {
          "northeast": {
            "lat": 51.49000317989272,
            "lng": -0.1646770701072778
          },
          "southwest": {
            "lat": 51.48730352010728,
            "lng": -0.1673767298927222
          }
        }
      },
      "fetched_at": "2025-10-15T10:53:10.078Z",
      "query_used": "restaurant chelsea london"
    },
    {
      "place_id": "ChIJJ-MhPWwFdkgRKVwtA039nU0",
      "name": "The Ivy Chelsea Garden",
      "category": "chelsea",
      "priority": "high",
      "rating": 4.3,
      "user_ratings_total": 6305,
      "formatted_address": "197 King's Rd, London SW3 5EQ, United Kingdom",
      "types": [
        "restaurant",
        "food",
        "point_of_interest",
        "establishment"
      ],
      "geometry": {
        "location": {
          "lat": 51.4869913,
          "lng": -0.1693306
        },
        "viewport": {
          "northeast": {
            "lat": 51.48842977989273,
            "lng": -0.1680495201072778
          },
          "southwest": {
            "lat": 51.48573012010728,
            "lng": -0.1707491798927222
          }
        }
      },
      "fetched_at": "2025-10-15T10:53:10.078Z",
      "query_used": "restaurant chelsea london"
    },
    {
      "place_id": "ChIJuW4AjG8FdkgRDb_vqbTS508",
      "name": "Bluebird Chelsea",
      "category": "chelsea",
      "priority": "high",
      "rating": 4.3,
      "user_ratings_total": 4674,
      "formatted_address": "350 King's Rd, London SW3 5UU, United Kingdom",
      "types": [
        "cafe",
        "night_club",
        "bar",
        "restaurant",
        "food",
        "point_of_interest",
        "establishment"
      ],
      "geometry": {
        "location": {
          "lat": 51.48475029999999,
          "lng": -0.1755033
        },
        "viewport": {
          "northeast": {
            "lat": 51.48613932989272,
            "lng": -0.1738971201072778
          },
          "southwest": {
            "lat": 51.48343967010727,
            "lng": -0.1765967798927222
          }
        }
      },
      "fetched_at": "2025-10-15T10:53:10.078Z",
      "query_used": "restaurant chelsea london"
    },
    {
      "place_id": "ChIJ66HKJ8QFdkgRoWrsa8akEZc",
      "name": "The Cadogan Arms",
      "category": "chelsea",
      "priority": "high",
      "rating": 4.6,
      "user_ratings_total": 1704,
      "formatted_address": "298 King's Rd, London SW3 5UG, United Kingdom",
      "types": [
        "bar",
        "restaurant",
        "food",
        "point_of_interest",
        "establishment"
      ],
      "geometry": {
        "location": {
          "lat": 51.4859959,
          "lng": -0.1729423
        },
        "viewport": {
          "northeast": {
            "lat": 51.48730132989272,
            "lng": -0.1715075701072778
          },
          "southwest": {
            "lat": 51.48460167010727,
            "lng": -0.1742072298927222
          }
        }
      },
      "fetched_at": "2025-10-15T10:53:10.078Z",
      "query_used": "restaurant chelsea london"
    },
    {
      "place_id": "ChIJlRcZynoFdkgR0we2mTUEuTs",
      "name": "Medlar",
      "category": "chelsea",
      "priority": "high",
      "rating": 4.8,
      "user_ratings_total": 677,
      "formatted_address": "438 King's Rd, London SW10 0LH, United Kingdom",
      "types": [
        "restaurant",
        "food",
        "point_of_interest",
        "establishment"
      ],
      "geometry": {
        "location": {
          "lat": 51.4831008,
          "lng": -0.1776936
        },
        "viewport": {
          "northeast": {
            "lat": 51.48441277989273,
            "lng": -0.1763178201072778
          },
          "southwest": {
            "lat": 51.48171312010728,
            "lng": -0.1790174798927222
          }
        }
      },
      "fetched_at": "2025-10-15T10:53:10.078Z",
      "query_used": "restaurant chelsea london"
    },
    {
      "place_id": "ChIJCVdqxMAFdkgRYpy56gR6GCk",
      "name": "Three Darlings",
      "category": "chelsea",
      "priority": "high",
      "rating": 4.6,
      "user_ratings_total": 122,
      "formatted_address": "241B Pavilion Rd, London SW1X 0BP, United Kingdom",
      "types": [
        "restaurant",
        "food",
        "point_of_interest",
        "establishment"
      ],
      "geometry": {
        "location": {
          "lat": 51.4937097,
          "lng": -0.1584574
        },
        "viewport": {
          "northeast": {
            "lat": 51.49503882989272,
            "lng": -0.1572666201072778
          },
          "southwest": {
            "lat": 51.49233917010727,
            "lng": -0.1599662798927222
          }
        }
      },
      "fetched_at": "2025-10-15T10:53:10.078Z",
      "query_used": "restaurant chelsea london"
    },
    {
      "place_id": "ChIJ5YAiW2UFdkgRxAuqGLK1fTo",
      "name": "Beaufort House Chelsea",
      "category": "chelsea",
      "priority": "high",
      "rating": 4.2,
      "user_ratings_total": 842,
      "formatted_address": "354 King's Rd, London SW3 5UZ, United Kingdom",
      "types": [
        "bar",
        "restaurant",
        "food",
        "point_of_interest",
        "establishment"
      ],
      "geometry": {
        "location": {
          "lat": 51.484533,
          "lng": -0.176005
        },
        "viewport": {
          "northeast": {
            "lat": 51.48586837989272,
            "lng": -0.1745443201072778
          },
          "southwest": {
            "lat": 51.48316872010728,
            "lng": -0.1772439798927222
          }
        }
      },
      "fetched_at": "2025-10-15T10:53:10.078Z",
      "query_used": "restaurant chelsea london"
    },
    {
      "place_id": "ChIJgW0B060FdkgRNOVOkEGQfxw",
      "name": "BÃ“HA LONDON",
      "category": "chelsea",
      "priority": "high",
      "rating": 4.3,
      "user_ratings_total": 435,
      "formatted_address": "562 King's Rd, London SW6 2DZ, United Kingdom",
      "types": [
        "night_club",
        "bar",
        "restaurant",
        "food",
        "point_of_interest",
        "establishment"
      ],
      "geometry": {
        "location": {
          "lat": 51.4793442,
          "lng": -0.1876141
        },
        "viewport": {
          "northeast": {
            "lat": 51.48066627989272,
            "lng": -0.1862277201072778
          },
          "southwest": {
            "lat": 51.47796662010727,
            "lng": -0.1889273798927222
          }
        }
      },
      "fetched_at": "2025-10-15T10:53:10.078Z",
      "query_used": "restaurant chelsea london"
    },
    {
      "place_id": "ChIJ51SweWoFdkgRIzOGa8Fhc9I",
      "name": "Daphne's",
      "category": "chelsea",
      "priority": "high",
      "rating": 4.3,
      "user_ratings_total": 1450,
      "formatted_address": "112 Draycott Ave, London SW3 3AE, United Kingdom",
      "types": [
        "bar",
        "restaurant",
        "food",
        "point_of_interest",
        "establishment"
      ],
      "geometry": {
        "location": {
          "lat": 51.4936865,
          "lng": -0.1677929
        },
        "viewport": {
          "northeast": {
            "lat": 51.49498527989272,
            "lng": -0.1665007201072778
          },
          "southwest": {
            "lat": 51.49228562010728,
            "lng": -0.1692003798927222
          }
        }
      },
      "fetched_at": "2025-10-15T10:53:10.078Z",
      "query_used": "restaurant chelsea london"
    },
    {
      "place_id": "ChIJK7aYUOsFdkgRKgJYM07RLuw",
      "name": "Stanley's Chelsea",
      "category": "chelsea",
      "priority": "high",
      "rating": 4.3,
      "user_ratings_total": 274,
      "formatted_address": "151 Sydney St, London SW3 5UE, United Kingdom",
      "types": [
        "restaurant",
        "bar",
        "food",
        "point_of_interest",
        "establishment"
      ],
      "geometry": {
        "location": {
          "lat": 51.48757519999999,
          "lng": -0.1692573
        },
        "viewport": {
          "northeast": {
            "lat": 51.48900327989271,
            "lng": -0.1677277201072778
          },
          "southwest": {
            "lat": 51.48630362010727,
            "lng": -0.1704273798927222
          }
        }
      },
      "fetched_at": "2025-10-15T10:53:10.078Z",
      "query_used": "restaurant chelsea london"
    },
    {
      "place_id": "ChIJnaPBAT4FdkgRaNTHwWGWYYA",
      "name": "Granger & Co. Chelsea",
      "category": "chelsea",
      "priority": "high",
      "rating": 4.2,
      "user_ratings_total": 2308,
      "formatted_address": "237-239 Pavilion Rd, London SW1X 0BP, United Kingdom",
      "types": [
        "restaurant",
        "food",
        "point_of_interest",
        "establishment"
      ],
      "geometry": {
        "location": {
          "lat": 51.4937491,
          "lng": -0.1587577
        },
        "viewport": {
          "northeast": {
            "lat": 51.49511487989272,
            "lng": -0.1574100701072778
          },
          "southwest": {
            "lat": 51.49241522010728,
            "lng": -0.1601097298927222
          }
        }
      },
      "fetched_at": "2025-10-15T10:53:10.078Z",
      "query_used": "restaurant chelsea london"
    },
    {
      "place_id": "ChIJySy3o2MFdkgRrkVexMIkbzk",
      "name": "The Ivy Asia Chelsea",
      "category": "chelsea",
      "priority": "high",
      "rating": 4.4,
      "user_ratings_total": 1926,
      "formatted_address": "201, 203A King's Rd, London SW3 5ED, United Kingdom",
      "types": [
        "restaurant",
        "food",
        "point_of_interest",
        "establishment"
      ],
      "geometry": {
        "location": {
          "lat": 51.4869652,
          "lng": -0.1696046
        },
        "viewport": {
          "northeast": {
            "lat": 51.48838212989272,
            "lng": -0.1682761201072778
          },
          "southwest": {
            "lat": 51.48568247010728,
            "lng": -0.1709757798927222
          }
        }
      },
      "fetched_at": "2025-10-15T10:53:10.078Z",
      "query_used": "restaurant chelsea london"
    },
    {
      "place_id": "ChIJ7dsWCHIFdkgR0l78z0NcBrs",
      "name": "No. Fifty Cheyne",
      "category": "chelsea",
      "priority": "high",
      "rating": 4.6,
      "user_ratings_total": 691,
      "formatted_address": "50 Cheyne Walk, London SW3 5LR, United Kingdom",
      "types": [
        "restaurant",
        "bar",
        "food",
        "point_of_interest",
        "establishment"
      ],
      "geometry": {
        "location": {
          "lat": 51.4833537,
          "lng": -0.1694099
        },
        "viewport": {
          "northeast": {
            "lat": 51.48466137989272,
            "lng": -0.1680703701072778
          },
          "southwest": {
            "lat": 51.48196172010728,
            "lng": -0.1707700298927222
          }
        }
      },
      "fetched_at": "2025-10-15T10:53:10.078Z",
      "query_used": "restaurant chelsea london"
    }
  ],
  "fetched_at": "2025-10-15T10:53:10.078Z"
}