{
  "category": "japanese",
  "query": "japanese restaurant london",
  "count": 20,
  "results": [
    {
      "place_id": "ChIJZdN_kTgFdkgR0NR3z813cBw",
      "name": "Zuma London",
      "category": "japanese",
      "priority": "high",
      "rating": 4.5,
      "user_ratings_total": 2752,
      "formatted_address": "5 Raphael St, London SW7 1DL, United Kingdom",
      "types": [
        "restaurant",
        "point_of_interest",
        "food",
        "establishment"
      ],
      "geometry": {
        "location": {
          "lat": 51.5009309,
          "lng": -0.163136
        },
        "viewport": {
          "northeast": {
            "lat": 51.50232557989272,
            "lng": -0.1618308701072778
          },
          "southwest": {
            "lat": 51.49962592010728,
            "lng": -0.1645305298927222
          }
        }
      },
      "fetched_at": "2025-10-16T20:23:20.985Z",
      "query_used": "japanese restaurant london"
    },
    {
      "place_id": "ChIJSy7dWdMEdkgRUsQRXDrLjro",
      "name": "Kanpai Classic Soho",
      "category": "japanese",
      "priority": "high",
      "rating": 4.9,
      "user_ratings_total": 488,
      "formatted_address": "147-149 Wardour St, London W1F 8WD, United Kingdom",
      "types": [
        "bar",
        "restaurant",
        "point_of_interest",
        "food",
        "establishment"
      ],
      "geometry": {
        "location": {
          "lat": 51.5141892,
          "lng": -0.1347479
        },
        "viewport": {
          "northeast": {
            "lat": 51.51553627989272,
            "lng": -0.1332932701072778
          },
          "southwest": {
            "lat": 51.51283662010728,
            "lng": -0.1359929298927222
          }
        }
      },
      "fetched_at": "2025-10-16T20:23:20.985Z",
      "query_used": "japanese restaurant london"
    },
    {
      "place_id": "ChIJn6rIg9EEdkgRX8hySToFzgk",
      "name": "Machiya",
      "category": "japanese",
      "priority": "high",
      "rating": 4.6,
      "user_ratings_total": 3071,
      "formatted_address": "5 Panton St, London SW1Y 4DL, United Kingdom",
      "types": [
        "restaurant",
        "point_of_interest",
        "food",
        "establishment"
      ],
      "geometry": {
        "location": {
          "lat": 51.50936009999999,
          "lng": -0.1319244
        },
        "viewport": {
          "northeast": {
            "lat": 51.51072442989273,
            "lng": -0.1305888701072778
          },
          "southwest": {
            "lat": 51.50802477010728,
            "lng": -0.1332885298927222
          }
        }
      },
      "fetched_at": "2025-10-16T20:23:20.986Z",
      "query_used": "japanese restaurant london"
    },
    {
      "place_id": "ChIJxSy5AXIFdkgRCSYxrSS0hZo",
      "name": "OITA Soho",
      "category": "japanese",
      "priority": "high",
      "rating": 4.7,
      "user_ratings_total": 2719,
      "formatted_address": "47 Gerrard St, London W1D 5QJ, United Kingdom",
      "types": [
        "bar",
        "restaurant",
        "point_of_interest",
        "food",
        "establishment"
      ],
      "geometry": {
        "location": {
          "lat": 51.5120922,
          "lng": -0.1299599
        },
        "viewport": {
          "northeast": {
            "lat": 51.51350432989273,
            "lng": -0.1286211701072778
          },
          "southwest": {
            "lat": 51.51080467010728,
            "lng": -0.1313208298927222
          }
        }
      },
      "fetched_at": "2025-10-16T20:23:20.986Z",
      "query_used": "japanese restaurant london"
    },
    {
      "place_id": "ChIJi_vxlrIcdkgRIz_Ec6MJUBA",
      "name": "SUSHISAMBA London",
      "category": "japanese",
      "priority": "high",
      "rating": 4.5,
      "user_ratings_total": 12179,
      "formatted_address": "Heron Tower, London EC2N 4AY, United Kingdom",
      "types": [
        "night_club",
        "bar",
        "restaurant",
        "point_of_interest",
        "food",
        "establishment"
      ],
      "geometry": {
        "location": {
          "lat": 51.5162529,
          "lng": -0.0809449
        },
        "viewport": {
          "northeast": {
            "lat": 51.51770207989272,
            "lng": -0.07980827010727778
          },
          "southwest": {
            "lat": 51.51500242010728,
            "lng": -0.08250792989272222
          }
        }
      },
      "fetched_at": "2025-10-16T20:23:20.986Z",
      "query_used": "japanese restaurant london"
    },
    {
      "place_id": "ChIJ4UKmrQ0FdkgR_cbbNgBIHk0",
      "name": "Sanjugo Victoria",
      "category": "japanese",
      "priority": "high",
      "rating": 4.9,
      "user_ratings_total": 674,
      "formatted_address": "44 Hugh St, Pimlico, London SW1V 4EP, United Kingdom",
      "types": [
        "restaurant",
        "point_of_interest",
        "food",
        "establishment"
      ],
      "geometry": {
        "location": {
          "lat": 51.49158019999999,
          "lng": -0.1465822
        },
        "viewport": {
          "northeast": {
            "lat": 51.49290192989272,
            "lng": -0.1451383701072778
          },
          "southwest": {
            "lat": 51.49020227010727,
            "lng": -0.1478380298927222
          }
        }
      },
      "fetched_at": "2025-10-16T20:23:20.986Z",
      "query_used": "japanese restaurant london"
    },
    {
      "place_id": "ChIJgUkU7K0FdkgRfVvyQBXwWAI",
      "name": "Maru London",
      "category": "japanese",
      "priority": "high",
      "rating": 4.8,
      "user_ratings_total": 201,
      "formatted_address": "18 Shepherd Market, London W1J 7QH, United Kingdom",
      "types": [
        "restaurant",
        "point_of_interest",
        "food",
        "establishment"
      ],
      "geometry": {
        "location": {
          "lat": 51.5066938,
          "lng": -0.1462888
        },
        "viewport": {
          "northeast": {
            "lat": 51.50793612989272,
            "lng": -0.1449811201072778
          },
          "southwest": {
            "lat": 51.50523647010728,
            "lng": -0.1476807798927222
          }
        }
      },
      "fetched_at": "2025-10-16T20:23:20.986Z",
      "query_used": "japanese restaurant london"
    },
    {
      "place_id": "ChIJk0govMocdkgRMHymyiHS2BQ",
      "name": "SUSHINOEN",
      "category": "japanese",
      "priority": "high",
      "rating": 4.7,
      "user_ratings_total": 3128,
      "formatted_address": "2 White Church Ln, London E1 7QR, United Kingdom",
      "types": [
        "restaurant",
        "point_of_interest",
        "food",
        "establishment"
      ],
      "geometry": {
        "location": {
          "lat": 51.5159921,
          "lng": -0.0691277
        },
        "viewport": {
          "northeast": {
            "lat": 51.51735387989272,
            "lng": -0.06786447010727778
          },
          "southwest": {
            "lat": 51.51465422010727,
            "lng": -0.07056412989272222
          }
        }
      },
      "fetched_at": "2025-10-16T20:23:20.986Z",
      "query_used": "japanese restaurant london"
    },
    {
      "place_id": "ChIJG0g31q8cdkgR51BaT2CzTKM",
      "name": "Sanjugo Shoreditch",
      "category": "japanese",
      "priority": "high",
      "rating": 4.8,
      "user_ratings_total": 3492,
      "formatted_address": "13-15 Great Eastern St, London EC2A 3EJ, United Kingdom",
      "types": [
        "restaurant",
        "point_of_interest",
        "food",
        "establishment"
      ],
      "geometry": {
        "location": {
          "lat": 51.5230642,
          "lng": -0.07843649999999999
        },
        "viewport": {
          "northeast": {
            "lat": 51.52444627989272,
            "lng": -0.07703582010727776
          },
          "southwest": {
            "lat": 51.52174662010728,
            "lng": -0.0797354798927222
          }
        }
      },
      "fetched_at": "2025-10-16T20:23:20.986Z",
      "query_used": "japanese restaurant london"
    },
    {
      "place_id": "ChIJUxM3CtgFdkgRcQdT2JJrEPo",
      "name": "High Yaki",
      "category": "japanese",
      "priority": "high",
      "rating": 4.4,
      "user_ratings_total": 928,
      "formatted_address": "UNIT 13, High Yaki, 10 Newport Pl, London WC2H 7PR, United Kingdom",
      "types": [
        "restaurant",
        "point_of_interest",
        "food",
        "establishment"
      ],
      "geometry": {
        "location": {
          "lat": 51.5120368,
          "lng": -0.1293737
        },
        "viewport": {
          "northeast": {
            "lat": 51.51335127989272,
            "lng": -0.1279411201072778
          },
          "southwest": {
            "lat": 51.51065162010728,
            "lng": -0.1306407798927222
          }
        }
      },
      "fetched_at": "2025-10-16T20:23:20.986Z",
      "query_used": "japanese restaurant london"
    },
    {
      "place_id": "ChIJAWYM7dIEdkgRB4EK5EPS4KM",
      "name": "Eat Tokyo (Soho)",
      "category": "japanese",
      "priority": "high",
      "rating": 4.3,
      "user_ratings_total": 5510,
      "formatted_address": "16 Old Compton St, London W1D 4TL, United Kingdom",
      "types": [
        "restaurant",
        "point_of_interest",
        "food",
        "establishment"
      ],
      "geometry": {
        "location": {
          "lat": 51.5137149,
          "lng": -0.130203
        },
        "viewport": {
          "northeast": {
            "lat": 51.51502257989272,
            "lng": -0.1288186201072778
          },
          "southwest": {
            "lat": 51.51232292010727,
            "lng": -0.1315182798927222
          }
        }
      },
      "fetched_at": "2025-10-16T20:23:20.986Z",
      "query_used": "japanese restaurant london"
    },
    {
      "place_id": "ChIJHR2Cb04bdkgR3BlIx-uSK-Q",
      "name": "Hanasaki Japanese Restaurant",
      "category": "japanese",
      "priority": "high",
      "rating": 4.8,
      "user_ratings_total": 239,
      "formatted_address": "53 Cleveland St, London W1T 4JJ, United Kingdom",
      "types": [
        "restaurant",
        "point_of_interest",
        "food",
        "establishment"
      ],
      "geometry": {
        "location": {
          "lat": 51.52047169999999,
          "lng": -0.1388582
        },
        "viewport": {
          "northeast": {
            "lat": 51.52185782989272,
            "lng": -0.1374597701072778
          },
          "southwest": {
            "lat": 51.51915817010727,
            "lng": -0.1401594298927222
          }
        }
      },
      "fetched_at": "2025-10-16T20:23:20.986Z",
      "query_used": "japanese restaurant london"
    },
    {
      "place_id": "ChIJixOprFkFdkgRfSpKJGmWets",
      "name": "NIJÅª",
      "category": "japanese",
      "priority": "high",
      "rating": 4.5,
      "user_ratings_total": 355,
      "formatted_address": "20 Berkeley St, London W1J 8EE, United Kingdom",
      "types": [
        "restaurant",
        "point_of_interest",
        "food",
        "establishment"
      ],
      "geometry": {
        "location": {
          "lat": 51.50899279999999,
          "lng": -0.1438217
        },
        "viewport": {
          "northeast": {
            "lat": 51.51035327989272,
            "lng": -0.1425085701072778
          },
          "southwest": {
            "lat": 51.50765362010728,
            "lng": -0.1452082298927222
          }
        }
      },
      "fetched_at": "2025-10-16T20:23:20.986Z",
      "query_used": "japanese restaurant london"
    },
    {
      "place_id": "ChIJ1SQoZSwbdkgRX7bLXUu3bIc",
      "name": "ROKA Charlotte Street",
      "category": "japanese",
      "priority": "high",
      "rating": 4.4,
      "user_ratings_total": 2821,
      "formatted_address": "37 Charlotte St., London W1T 1RR, United Kingdom",
      "types": [
        "bar",
        "restaurant",
        "point_of_interest",
        "food",
        "establishment"
      ],
      "geometry": {
        "location": {
          "lat": 51.5189387,
          "lng": -0.1355877
        },
        "viewport": {
          "northeast": {
            "lat": 51.52031327989272,
            "lng": -0.1341262201072778
          },
          "southwest": {
            "lat": 51.51761362010727,
            "lng": -0.1368258798927222
          }
        }
      },
      "fetched_at": "2025-10-16T20:23:20.986Z",
      "query_used": "japanese restaurant london"
    },
    {
      "place_id": "ChIJ3Xz1VkQbdkgRUgW5PZAMF6Q",
      "name": "RAI Restaurant London",
      "category": "japanese",
      "priority": "high",
      "rating": 4.7,
      "user_ratings_total": 1339,
      "formatted_address": "11, RAI, 13 Bayley St, London WC1B 3HD, United Kingdom",
      "types": [
        "restaurant",
        "point_of_interest",
        "food",
        "establishment"
      ],
      "geometry": {
        "location": {
          "lat": 51.518761,
          "lng": -0.132082
        },
        "viewport": {
          "northeast": {
            "lat": 51.52014797989272,
            "lng": -0.1305331701072778
          },
          "southwest": {
            "lat": 51.51744832010728,
            "lng": -0.1332328298927222
          }
        }
      },
      "fetched_at": "2025-10-16T20:23:20.986Z",
      "query_used": "japanese restaurant london"
    },
    {
      "place_id": "ChIJmfK8XnkbdkgRN3LZ9y6M6j8",
      "name": "Uzumaki London",
      "category": "japanese",
      "priority": "high",
      "rating": 4.7,
      "user_ratings_total": 5001,
      "formatted_address": "107 Great Russell St, London WC1B 3NB, United Kingdom",
      "types": [
        "restaurant",
        "point_of_interest",
        "food",
        "establishment"
      ],
      "geometry": {
        "location": {
          "lat": 51.5175087,
          "lng": -0.1292179
        },
        "viewport": {
          "northeast": {
            "lat": 51.51884457989273,
            "lng": -0.1278914201072778
          },
          "southwest": {
            "lat": 51.51614492010729,
            "lng": -0.1305910798927222
          }
        }
      },
      "fetched_at": "2025-10-16T20:23:20.986Z",
      "query_used": "japanese restaurant london"
    },
    {
      "place_id": "ChIJA2F7oSwFdkgRVkmQrSL-ok8",
      "name": "Chisou Sushi and Izakaya",
      "category": "japanese",
      "priority": "high",
      "rating": 4.5,
      "user_ratings_total": 1299,
      "formatted_address": "22-23 Woodstock St, London W1C 2AR, United Kingdom",
      "types": [
        "restaurant",
        "point_of_interest",
        "food",
        "establishment"
      ],
      "geometry": {
        "location": {
          "lat": 51.5138031,
          "lng": -0.147187
        },
        "viewport": {
          "northeast": {
            "lat": 51.51519037989272,
            "lng": -0.1457827701072778
          },
          "southwest": {
            "lat": 51.51249072010728,
            "lng": -0.1484824298927222
          }
        }
      },
      "fetched_at": "2025-10-16T20:23:20.986Z",
      "query_used": "japanese restaurant london"
    },
    {
      "place_id": "ChIJYyj_7tQEdkgROdjdhJJKNHQ",
      "name": "INKO NITO - Soho",
      "category": "japanese",
      "priority": "high",
      "rating": 4.4,
      "user_ratings_total": 1441,
      "formatted_address": "55 Broadwick St, Carnaby, London W1F 9QS, United Kingdom",
      "types": [
        "restaurant",
        "point_of_interest",
        "food",
        "establishment"
      ],
      "geometry": {
        "location": {
          "lat": 51.5130582,
          "lng": -0.1372415
        },
        "viewport": {
          "northeast": {
            "lat": 51.51448672989272,
            "lng": -0.1359090201072778
          },
          "southwest": {
            "lat": 51.51178707010727,
            "lng": -0.1386086798927222
          }
        }
      },
      "fetched_at": "2025-10-16T20:23:20.986Z",
      "query_used": "japanese restaurant london"
    },
    {
      "place_id": "ChIJtztpzhwbdkgRsuNgcj18UxQ",
      "name": "Hot Stone London",
      "category": "japanese",
      "priority": "high",
      "rating": 4.5,
      "user_ratings_total": 6436,
      "formatted_address": "3 Windmill St, London W1T 2HY, United Kingdom",
      "types": [
        "restaurant",
        "point_of_interest",
        "food",
        "establishment"
      ],
      "geometry": {
        "location": {
          "lat": 51.5185559,
          "lng": -0.1343133
        },
        "viewport": {
          "northeast": {
            "lat": 51.51991367989272,
            "lng": -0.1330165201072778
          },
          "southwest": {
            "lat": 51.51721402010728,
            "lng": -0.1357161798927222
          }
        }
      },
      "fetched_at": "2025-10-16T20:23:20.986Z",
      "query_used": "japanese restaurant london"
    },
    {
      "place_id": "ChIJIe6SvdIEdkgR2JJDuWXEJRc",
      "name": "Shack-Fuyu Soho",
      "category": "japanese",
      "priority": "high",
      "rating": 4.5,
      "user_ratings_total": 2548,
      "formatted_address": "14A Old Compton St, London W1D 4TJ, United Kingdom",
      "types": [
        "restaurant",
        "point_of_interest",
        "food",
        "establishment"
      ],
      "geometry": {
        "location": {
          "lat": 51.5137081,
          "lng": -0.130121
        },
        "viewport": {
          "northeast": {
            "lat": 51.51503977989272,
            "lng": -0.1287575701072778
          },
          "southwest": {
            "lat": 51.51234012010728,
            "lng": -0.1314572298927222
          }
        }
      },
      "fetched_at": "2025-10-16T20:23:20.986Z",
      "query_used": "japanese restaurant london"
    }
  ],
  "fetched_at": "2025-10-16T20:23:20.986Z"
}